[
  {
    "id": 1,
    "name": "The Well",
    "lat": 35.76901886878039,
    "lng": -83.95934490743693,
    "address": "1413 E Broadway Ave",
    "city": "Maryville",
    "state": "Tennessee",
    "stateAbbr": "TN",
    "specialty": ["Bloodline Deliverance", "Freemasonry"]
  },
  {
    "id": 2,
    "name": "Location 2",
    "lat": 35.960,
    "lng": -83.920,
    "address": "123 Oak Ave",
    "city": "Knoxville",
    "state":"Tennessee",
    "stateAbbr": "TN",
    "specialty": ["Bloodline Deliverance", "SRA"],
    "email": "email@email.net",
    "site": "https://thewellglobal.life",
    "phone": "(123)456-7891"
  },
  {
    "id": 3,
    "name": "Location 3",
    "lat": 37.960,
    "lng": -82.920,
    "address": "456 Elm Ave",
    "city": "Lexington",
    "state":"Kentucky",
    "stateAbbr": "KY",
    "site": "https://thewellglobal.life",
    "phone": "(123)456-7891"
  },
    {
    "id": 4,
    "name": "Location 4",
    "lat": 35.960,
    "lng": -80.920,
    "address": "789 Willow Dr",
    "city": "Flavortown",
    "state":"Michigan",
    "stateAbbr": "MI",
    "specialty": ["Bloodline Deliverance"],
    "site": "https://thewellglobal.life",
    "phone": "(123)456-7891"
    },
    {
    "id": 5,
    "name": "Location 5",
    "lat": 30.960,
    "lng": -100.920,
    "address": "456 Pine Way",
    "city": "Odessa",
    "state":"Texas",
    "stateAbbr": "TX",
    "specialty": ["Bloodline Deliverance", "New Age", "SRA", "Emotional Healing", "Freemasonry", "Soul Fracture"],
    "site": "https://thewellglobal.life",
    "phone": "(123)456-7891"
    },
    {
    "id": 6,
    "name": "Location 6",
    "lat": 37.960,
    "lng": -90.920,
    "address": "456 Elm Ave",
    "city": "St. Louis",
    "state":"Missouri",
    "stateAbbr": "MO",
    "specialty": ["Soul Fracture", "Emotional Healing"],
    "site": "https://thewellglobal.life",
    "phone": "(123)456-7891"
    }
]
